['10.114.0.3', '143.244.192.104', '143.244.224.118', '143.244.224.115', '118.85.205.81', '138.197.249.34', '80.239.132.214', '10.68.67.3', '180.213.249.74', '42.81.35.102', '202.97.58.93', '10.114.0.3', '10.114.0.3', '10.114.0.3', '10.114.0.3', '10.114.0.3', '10.114.0.3', '10.114.0.3', '10.114.0.3', '10.114.0.3', '10.114.0.3', '10.114.0.3', '10.114.0.3', '10.114.0.3', '10.114.0.3', '10.114.0.3', '10.114.0.3', '10.114.0.3', '10.114.0.3', '10.114.0.3', '10.114.0.3', '10.114.0.3', '10.114.0.3', '10.114.0.3', '10.114.0.3', '10.114.0.3', '10.114.0.3', '10.114.0.3', '10.114.0.3', '10.114.0.3', '10.114.0.3', '10.114.0.3', '10.114.0.3', '10.114.0.3', '10.114.0.3', '10.114.0.3', '10.114.0.3', '10.114.0.3', '10.114.0.3', '10.114.0.3', '10.114.0.3', '10.114.0.3', '10.114.0.3', '10.114.0.3', '10.114.0.3', '10.114.0.3', '10.114.0.3', '10.114.0.3', '10.114.0.3', '10.114.0.3', '10.114.0.3', '10.114.0.3', '143.244.192.110']
('143.244.192.104', {'country': 'Canada', 'region': 'QC', 'city': 'Montreal', 'lat': 45.5019, 'lon': -73.5674})
('143.244.224.118', {'country': 'Canada', 'region': 'QC', 'city': 'Montreal', 'lat': 45.5019, 'lon': -73.5674})
('143.244.224.115', {'country': 'Canada', 'region': 'QC', 'city': 'Montreal', 'lat': 45.5019, 'lon': -73.5674})
('118.85.205.81', {'country': 'China', 'region': 'BJ', 'city': 'Beijing', 'lat': 39.9042, 'lon': 116.407})
('138.197.249.34', {'country': 'Canada', 'region': 'ON', 'city': 'Toronto', 'lat': 43.6547, 'lon': -79.3623})
('80.239.132.214', {'country': 'United States', 'region': 'WA', 'city': 'Seattle', 'lat': 47.6137, 'lon': -122.338})
('180.213.249.74', {'country': 'China', 'region': 'TJ', 'city': 'Tianjin', 'lat': 39.3434, 'lon': 117.362})
('42.81.35.102', {'country': 'China', 'region': 'TJ', 'city': 'Tianjin', 'lat': 39.1488, 'lon': 117.1762})
('202.97.58.93', {'country': 'China', 'region': 'BJ', 'city': 'Beijing', 'lat': 39.9042, 'lon': 116.407})
('143.244.192.110', {'country': 'Canada', 'region': 'QC', 'city': 'Montreal', 'lat': 45.5019, 'lon': -73.5674})
