['10.114.0.3', '10.114.0.3', '10.114.0.3', '10.114.0.3', '10.114.0.3', '10.114.0.3', '10.114.0.3', '10.114.0.3', '10.114.0.3', '10.114.0.3', '10.114.0.3', '10.114.0.3', '10.114.0.3', '10.114.0.3', '10.114.0.3', '10.114.0.3', '10.114.0.3', '10.114.0.3', '10.114.0.3', '10.114.0.3', '10.114.0.3', '10.114.0.3', '10.114.0.3', '10.114.0.3', '10.114.0.3', '10.114.0.3', '10.114.0.3', '10.114.0.3', '10.114.0.3', '10.114.0.3', '10.114.0.3', '10.114.0.3', '10.114.0.3', '10.114.0.3', '10.68.67.25', '143.244.192.108', '143.244.224.116', '138.197.249.36', '143.244.224.115', '80.239.132.240', '62.115.136.218', '62.115.132.209', '219.158.14.25', '219.158.20.221', '10.114.0.3', '10.114.0.3', '10.114.0.3', '10.114.0.3', '10.114.0.3', '10.114.0.3', '10.114.0.3', '10.114.0.3', '10.114.0.3', '10.114.0.3', '10.114.0.3', '10.114.0.3', '10.114.0.3', '10.114.0.3', '10.114.0.3', '10.114.0.3', '10.114.0.3', '10.114.0.3', '10.114.0.3']
('143.244.192.108', {'country': 'Canada', 'region': 'QC', 'city': 'Montreal', 'lat': 45.5019, 'lon': -73.5674})
('143.244.224.116', {'country': 'Canada', 'region': 'QC', 'city': 'Montreal', 'lat': 45.5019, 'lon': -73.5674})
('138.197.249.36', {'country': 'Canada', 'region': 'ON', 'city': 'Toronto', 'lat': 43.6547, 'lon': -79.3623})
('143.244.224.115', {'country': 'Canada', 'region': 'QC', 'city': 'Montreal', 'lat': 45.5019, 'lon': -73.5674})
('80.239.132.240', {'country': 'United States', 'region': 'WA', 'city': 'Seattle', 'lat': 47.6137, 'lon': -122.338})
('62.115.136.218', {'country': 'Germany', 'region': 'HE', 'city': 'Frankfurt am Main', 'lat': 50.1109, 'lon': 8.68213})
('62.115.132.209', {'country': 'Germany', 'region': 'HE', 'city': 'Frankfurt am Main', 'lat': 50.1109, 'lon': 8.68213})
('219.158.14.25', {'country': 'China', 'region': 'BJ', 'city': 'Jinrongjie', 'lat': 39.9175, 'lon': 116.362})
('219.158.20.221', {'country': 'China', 'region': 'BJ', 'city': 'Jinrongjie', 'lat': 39.9175, 'lon': 116.362})
